[
  {
    "id": "first-fridays-crossroads",
    "title": "First Fridays â€” Crossroads",
    "slug": "first-fridays-crossroads",
    "startsAt": "2025-11-07T17:00:00-06:00",
    "endsAt": "2025-11-07T22:00:00-06:00",
    "tags": ["art", "nightlife", "free"],
    "priceMin": 0,
    "location": {"lng": -94.579, "lat": 39.092},
    "address": {"street":"18th & Baltimore","city":"Kansas City","state":"MO","zip":"64108"},
    "images": ["https://images.pexels.com/photos/1190298/pexels-photo-1190298.jpeg"],
    "description": "Monthly gallery walk with open studios, live music, and street festivities."
  },
  {
    "id": "kc-renaissance-festival",
    "title": "Kansas City Renaissance Festival",
    "slug": "kc-renaissance-festival",
    "startsAt": "2025-09-06T10:00:00-06:00",
    "endsAt": "2025-10-19T19:00:00-06:00",
    "tags": ["festival", "family-friendly", "outdoors"],
    "priceMin": 25,
    "location": {"lng": -94.8932, "lat": 38.7856},
    "address": {"street":"633 N 130th St","city":"Bonner Springs","state":"KS","zip":"66012"},
    "images": ["https://images.pexels.com/photos/1708912/pexels-photo-1708912.jpeg"],
    "description": "Annual Renaissance festival with jousting, entertainment, and period vendors."
  },
  {
    "id": "plaza-art-fair",
    "title": "Plaza Art Fair",
    "slug": "plaza-art-fair",
    "startsAt": "2025-09-19T10:00:00-06:00",
    "endsAt": "2025-09-21T18:00:00-06:00",
    "tags": ["art", "festival", "outdoor"],
    "priceMin": 0,
    "location": {"lng": -94.5912, "lat": 39.0411},
    "address": {"street":"Country Club Plaza","city":"Kansas City","state":"MO","zip":"64112"},
    "images": ["https://images.pexels.com/photos/1616403/pexels-photo-1616403.jpeg"],
    "description": "Prestigious outdoor art fair featuring 240+ artists across multiple blocks."
  },
  {
    "id": "boulevard-tank-7-release",
    "title": "Tank 7 Release Party",
    "slug": "tank-7-release-party",
    "startsAt": "2025-08-15T18:00:00-06:00",
    "endsAt": "2025-08-15T23:00:00-06:00",
    "tags": ["beer", "nightlife", "music"],
    "priceMin": 10,
    "location": {"lng": -94.5798, "lat": 39.0721},
    "address": {"street":"2534 Madison Ave","city":"Kansas City","state":"MO","zip":"64108"},
    "images": ["https://images.pexels.com/photos/1267309/pexels-photo-1267309.jpeg"],
    "description": "Annual release party for Boulevard's signature farmhouse ale with live music."
  },
  {
    "id": "jazz-in-the-woods",
    "title": "Jazz in the Woods",
    "slug": "jazz-in-the-woods",
    "startsAt": "2025-06-14T18:00:00-06:00",
    "endsAt": "2025-06-14T21:00:00-06:00",
    "tags": ["jazz", "music", "outdoor"],
    "priceMin": 0,
    "location": {"lng": -94.5899, "lat": 39.0321},
    "address": {"street":"5200 Wornall Rd","city":"Kansas City","state":"MO","zip":"64112"},
    "images": ["https://images.pexels.com/photos/1916824/pexels-photo-1916824.jpeg"],
    "description": "Free outdoor jazz concert series at Loose Park throughout summer."
  },
  {
    "id": "taste-of-kc",
    "title": "Taste of Kansas City",
    "slug": "taste-of-kc",
    "startsAt": "2025-07-04T11:00:00-06:00",
    "endsAt": "2025-07-04T22:00:00-06:00",
    "tags": ["food", "festival", "family-friendly"],
    "priceMin": 5,
    "location": {"lng": -94.5852, "lat": 39.0851},
    "address": {"street":"Crown Center","city":"Kansas City","state":"MO","zip":"64108"},
    "images": ["https://images.pexels.com/photos/1267320/pexels-photo-1267320.jpeg"],
    "description": "Food festival showcasing KC's best restaurants and local flavors."
  },
  {
    "id": "zombie-walk",
    "title": "KC Zombie Walk",
    "slug": "kc-zombie-walk",
    "startsAt": "2025-10-25T18:00:00-06:00",
    "endsAt": "2025-10-25T23:00:00-06:00",
    "tags": ["halloween", "nightlife", "costume"],
    "priceMin": 0,
    "location": {"lng": -94.5893, "lat": 39.0542},
    "address": {"street":"Westport District","city":"Kansas City","state":"MO","zip":"64111"},
    "images": ["https://images.pexels.com/photos/3361722/pexels-photo-3361722.jpeg"],
    "description": "Annual Halloween tradition with zombie-themed bar crawl through Westport."
  },
  {
    "id": "pride-fest",
    "title": "Kansas City PrideFest",
    "slug": "kc-pridefest",
    "startsAt": "2025-06-07T12:00:00-06:00",
    "endsAt": "2025-06-08T20:00:00-06:00",
    "tags": ["festival", "pride", "music"],
    "priceMin": 0,
    "location": {"lng": -94.5815, "lat": 39.0849},
    "address": {"street":"Berkley Riverfront Park","city":"Kansas City","state":"MO","zip":"64106"},
    "images": ["https://images.pexels.com/photos/2114014/pexels-photo-2114014.jpeg"],
    "description": "Two-day celebration of LGBTQ+ community with parade, vendors, and entertainment."
  },
  {
    "id": "irish-fest",
    "title": "Kansas City Irish Fest",
    "slug": "kc-irish-fest",
    "startsAt": "2025-08-29T17:00:00-06:00",
    "endsAt": "2025-08-31T23:00:00-06:00",
    "tags": ["festival", "music", "cultural"],
    "priceMin": 15,
    "location": {"lng": -94.5792, "lat": 39.0921},
    "address": {"street":"Crown Center","city":"Kansas City","state":"MO","zip":"64108"},
    "images": ["https://images.pexels.com/photos/1267358/pexels-photo-1267358.jpeg"],
    "description": "Three-day celebration of Irish culture with music, dance, food, and heritage."
  },
  {
    "id": "fountain-day",
    "title": "Fountain Day",
    "slug": "fountain-day",
    "startsAt": "2025-04-12T10:00:00-06:00",
    "endsAt": "2025-04-12T16:00:00-06:00",
    "tags": ["free", "family-friendly", "outdoor"],
    "priceMin": 0,
    "location": {"lng": -94.5912, "lat": 39.0411},
    "address": {"street":"Country Club Plaza","city":"Kansas City","state":"MO","zip":"64112"},
    "images": ["https://images.pexels.com/photos/161172/cycling-bike-trail-sport-161172.jpeg"],
    "description": "Annual celebration marking the activation of KC's famous fountains for the season."
  }
]
