[
  {
    "id": "joes-kc-47th",
    "name": "Joe's Kansas City BBQ",
    "slug": "joes-kansas-city-47th-ave",
    "category": "BBQ",
    "subcategory": "Casual",
    "neighborhood": "KCK / 47th Ave",
    "price_level": "$$",
    "rating": 4.8,
    "reviews": 1573,
    "tags": ["popular", "takeout", "family-friendly"],
    "address": {"street":"3002 W 47th Ave","city":"Kansas City","state":"KS","zip":"66103"},
    "location": {"lng": -94.6136, "lat": 39.0444},
    "hours": {"mon":"11–9","tue":"11–9","wed":"11–9","thu":"11–9","fri":"11–10","sat":"11–10","sun":"11–8"},
    "images": ["https://images.pexels.com/photos/1639557/pexels-photo-1639557.jpeg"],
    "ai_summary": "Beloved KC BBQ staple known for ribs and Z-Man sandwiches.",
    "featured": true
  },
  {
    "id": "q39-midtown",
    "name": "Q39",
    "slug": "q39-midtown",
    "category": "BBQ",
    "subcategory": "Upscale",
    "neighborhood": "Midtown",
    "price_level": "$$$",
    "rating": 4.7,
    "reviews": 892,
    "tags": ["upscale", "craft-beer", "popular"],
    "address": {"street":"1000 W 39th St","city":"Kansas City","state":"MO","zip":"64111"},
    "location": {"lng": -94.5893, "lat": 39.0553},
    "hours": {"mon":"11–9","tue":"11–9","wed":"11–9","thu":"11–9","fri":"11–10","sat":"11–10","sun":"11–9"},
    "images": ["https://images.pexels.com/photos/769289/pexels-photo-769289.jpeg"],
    "ai_summary": "Award-winning BBQ with a modern twist, full bar, and sleek atmosphere.",
    "featured": true
  },
  {
    "id": "the-rieger",
    "name": "The Rieger",
    "slug": "the-rieger",
    "category": "American",
    "subcategory": "Fine Dining",
    "neighborhood": "Crossroads",
    "price_level": "$$$",
    "rating": 4.6,
    "reviews": 654,
    "tags": ["fine-dining", "cocktails", "date-night"],
    "address": {"street":"1924 Main St","city":"Kansas City","state":"MO","zip":"64108"},
    "location": {"lng": -94.5815, "lat": 39.0849},
    "hours": {"mon":"Closed","tue":"5–10","wed":"5–10","thu":"5–10","fri":"5–11","sat":"5–11","sun":"5–9"},
    "images": ["https://images.pexels.com/photos/262978/pexels-photo-262978.jpeg"],
    "ai_summary": "Refined American cuisine with farm-to-table ethos in a historic building.",
    "featured": false
  },
  {
    "id": "westport-cafe",
    "name": "Westport Café & Bar",
    "slug": "westport-cafe",
    "category": "Coffee",
    "subcategory": "Cafe",
    "neighborhood": "Westport",
    "price_level": "$",
    "rating": 4.5,
    "reviews": 412,
    "tags": ["coffee", "wifi", "breakfast"],
    "address": {"street":"419 Westport Rd","city":"Kansas City","state":"MO","zip":"64111"},
    "location": {"lng": -94.5895, "lat": 39.0542},
    "hours": {"mon":"7–6","tue":"7–6","wed":"7–6","thu":"7–6","fri":"7–8","sat":"8–8","sun":"8–5"},
    "images": ["https://images.pexels.com/photos/302899/pexels-photo-302899.jpeg"],
    "ai_summary": "Cozy neighborhood cafe with great espresso and pastries.",
    "featured": false
  },
  {
    "id": "parlor-kc",
    "name": "Parlor",
    "slug": "parlor-kc",
    "category": "American",
    "subcategory": "Casual",
    "neighborhood": "Crossroads",
    "price_level": "$$",
    "rating": 4.4,
    "reviews": 389,
    "tags": ["brunch", "patio", "popular"],
    "address": {"street":"1802 McGee St","city":"Kansas City","state":"MO","zip":"64108"},
    "location": {"lng": -94.5783, "lat": 39.0862},
    "hours": {"mon":"10–10","tue":"10–10","wed":"10–10","thu":"10–10","fri":"10–11","sat":"9–11","sun":"9–10"},
    "images": ["https://images.pexels.com/photos/1307698/pexels-photo-1307698.jpeg"],
    "ai_summary": "Hip spot for wood-fired pizza, creative brunch, and cocktails.",
    "featured": true
  },
  {
    "id": "cafe-gratitude",
    "name": "Café Gratitude",
    "slug": "cafe-gratitude",
    "category": "Coffee",
    "subcategory": "Vegan",
    "neighborhood": "Country Club Plaza",
    "price_level": "$$",
    "rating": 4.7,
    "reviews": 523,
    "tags": ["vegan", "healthy", "organic"],
    "address": {"street":"333 W 47th St","city":"Kansas City","state":"MO","zip":"64112"},
    "location": {"lng": -94.5912, "lat": 39.0422},
    "hours": {"mon":"9–9","tue":"9–9","wed":"9–9","thu":"9–9","fri":"9–10","sat":"9–10","sun":"9–9"},
    "images": ["https://images.pexels.com/photos/1640774/pexels-photo-1640774.jpeg"],
    "ai_summary": "Plant-based cafe with feel-good vibes and creative menu.",
    "featured": false
  },
  {
    "id": "made-in-kc",
    "name": "Made in KC Marketplace",
    "slug": "made-in-kc",
    "category": "Arts",
    "subcategory": "Shopping",
    "neighborhood": "Country Club Plaza",
    "price_level": "$$",
    "rating": 4.8,
    "reviews": 712,
    "tags": ["shopping", "local", "gifts"],
    "address": {"street":"300 Ward Pkwy","city":"Kansas City","state":"MO","zip":"64112"},
    "location": {"lng": -94.5923, "lat": 39.0411},
    "hours": {"mon":"10–7","tue":"10–7","wed":"10–7","thu":"10–7","fri":"10–8","sat":"10–8","sun":"11–6"},
    "images": ["https://images.pexels.com/photos/1070945/pexels-photo-1070945.jpeg"],
    "ai_summary": "Curated local goods from KC makers and artisans.",
    "featured": true
  },
  {
    "id": "boulevard-tours",
    "name": "Boulevard Brewing Tours",
    "slug": "boulevard-brewing-tours",
    "category": "Nightlife",
    "subcategory": "Brewery",
    "neighborhood": "Westport",
    "price_level": "$",
    "rating": 4.6,
    "reviews": 1289,
    "tags": ["brewery", "tours", "popular"],
    "address": {"street":"2534 Madison Ave","city":"Kansas City","state":"MO","zip":"64108"},
    "location": {"lng": -94.5798, "lat": 39.0721},
    "hours": {"mon":"Closed","tue":"3–8","wed":"3–8","thu":"3–9","fri":"3–10","sat":"12–10","sun":"12–7"},
    "images": ["https://images.pexels.com/photos/1267696/pexels-photo-1267696.jpeg"],
    "ai_summary": "Iconic KC brewery offering tours, tastings, and a spacious beer hall.",
    "featured": false
  },
  {
    "id": "nelson-atkins",
    "name": "Nelson-Atkins Museum of Art",
    "slug": "nelson-atkins-museum",
    "category": "Arts",
    "subcategory": "Museum",
    "neighborhood": "Country Club Plaza",
    "price_level": "$",
    "rating": 4.9,
    "reviews": 3421,
    "tags": ["museum", "free", "family-friendly", "outdoors"],
    "address": {"street":"4525 Oak St","city":"Kansas City","state":"MO","zip":"64111"},
    "location": {"lng": -94.5808, "lat": 39.0454},
    "hours": {"mon":"Closed","tue":"10–5","wed":"10–5","thu":"10–9","fri":"10–5","sat":"10–5","sun":"10–5"},
    "images": ["https://images.pexels.com/photos/1839919/pexels-photo-1839919.jpeg"],
    "ai_summary": "World-class art museum with free admission and stunning sculpture park.",
    "featured": true
  },
  {
    "id": "union-station",
    "name": "Union Station Kansas City",
    "slug": "union-station-kansas-city",
    "category": "Outdoors",
    "subcategory": "Landmark",
    "neighborhood": "Crossroads",
    "price_level": "$",
    "rating": 4.7,
    "reviews": 2876,
    "tags": ["historic", "family-friendly", "science-museum"],
    "address": {"street":"30 W Pershing Rd","city":"Kansas City","state":"MO","zip":"64108"},
    "location": {"lng": -94.5852, "lat": 39.0851},
    "hours": {"mon":"10–5","tue":"10–5","wed":"10–5","thu":"10–5","fri":"10–5","sat":"10–5","sun":"12–5"},
    "images": ["https://images.pexels.com/photos/2774568/pexels-photo-2774568.jpeg"],
    "ai_summary": "Historic train station with Science City, exhibits, and events.",
    "featured": false
  },
  {
    "id": "kauffman-stadium",
    "name": "Kauffman Stadium",
    "slug": "kauffman-stadium",
    "category": "Outdoors",
    "subcategory": "Sports",
    "neighborhood": "Truman Sports Complex",
    "price_level": "$$",
    "rating": 4.8,
    "reviews": 4521,
    "tags": ["sports", "family-friendly", "baseball"],
    "address": {"street":"1 Royal Way","city":"Kansas City","state":"MO","zip":"64129"},
    "location": {"lng": -94.4806, "lat": 39.0514},
    "hours": {"mon":"Varies","tue":"Varies","wed":"Varies","thu":"Varies","fri":"Varies","sat":"Varies","sun":"Varies"},
    "images": ["https://images.pexels.com/photos/209977/pexels-photo-209977.jpeg"],
    "ai_summary": "Home of the Kansas City Royals with iconic fountains and great fan experience.",
    "featured": true
  },
  {
    "id": "loose-park",
    "name": "Loose Park",
    "slug": "loose-park",
    "category": "Outdoors",
    "subcategory": "Park",
    "neighborhood": "Brookside",
    "price_level": "$",
    "rating": 4.6,
    "reviews": 1823,
    "tags": ["park", "free", "family-friendly", "outdoors"],
    "address": {"street":"5200 Wornall Rd","city":"Kansas City","state":"MO","zip":"64112"},
    "location": {"lng": -94.5899, "lat": 39.0321},
    "hours": {"mon":"6–11pm","tue":"6–11pm","wed":"6–11pm","thu":"6–11pm","fri":"6–11pm","sat":"6–11pm","sun":"6–11pm"},
    "images": ["https://images.pexels.com/photos/2086361/pexels-photo-2086361.jpeg"],
    "ai_summary": "Beautiful 75-acre park with rose garden, lake, and trails.",
    "featured": false
  },
  {
    "id": "river-market",
    "name": "City Market",
    "slug": "city-market",
    "category": "Outdoors",
    "subcategory": "Market",
    "neighborhood": "River Market",
    "price_level": "$",
    "rating": 4.5,
    "reviews": 987,
    "tags": ["market", "family-friendly", "local"],
    "address": {"street":"20 E 5th St","city":"Kansas City","state":"MO","zip":"64106"},
    "location": {"lng": -94.5755, "lat": 39.1098},
    "hours": {"mon":"Closed","tue":"Closed","wed":"7–3","thu":"7–3","fri":"7–3","sat":"6–3","sun":"8–3"},
    "images": ["https://images.pexels.com/photos/264636/pexels-photo-264636.jpeg"],
    "ai_summary": "Historic farmers market with fresh produce, food vendors, and local crafts.",
    "featured": true
  },
  {
    "id": "jazz-museum",
    "name": "American Jazz Museum",
    "slug": "american-jazz-museum",
    "category": "Arts",
    "subcategory": "Museum",
    "neighborhood": "18th & Vine",
    "price_level": "$",
    "rating": 4.7,
    "reviews": 756,
    "tags": ["museum", "music", "historic"],
    "address": {"street":"1616 E 18th St","city":"Kansas City","state":"MO","zip":"64108"},
    "location": {"lng": -94.5534, "lat": 39.0864},
    "hours": {"mon":"Closed","tue":"10–5","wed":"10–5","thu":"10–5","fri":"10–5","sat":"10–5","sun":"12–5"},
    "images": ["https://images.pexels.com/photos/1327430/pexels-photo-1327430.jpeg"],
    "ai_summary": "Celebrating KC's rich jazz heritage with exhibits and live performances.",
    "featured": false
  },
  {
    "id": "green-lady-lounge",
    "name": "The Green Lady Lounge",
    "slug": "green-lady-lounge",
    "category": "Nightlife",
    "subcategory": "Jazz Club",
    "neighborhood": "Crossroads",
    "price_level": "$",
    "rating": 4.8,
    "reviews": 623,
    "tags": ["live-music", "jazz", "cocktails"],
    "address": {"street":"1809 Grand Blvd","city":"Kansas City","state":"MO","zip":"64108"},
    "location": {"lng": -94.5786, "lat": 39.0858},
    "hours": {"mon":"7pm–2am","tue":"7pm–2am","wed":"7pm–2am","thu":"7pm–2am","fri":"7pm–3am","sat":"7pm–3am","sun":"Closed"},
    "images": ["https://images.pexels.com/photos/1190297/pexels-photo-1190297.jpeg"],
    "ai_summary": "Intimate jazz club with nightly live music and no cover charge.",
    "featured": true
  },
  {
    "id": "betty-raes",
    "name": "Betty Rae's Ice Cream",
    "slug": "betty-raes-ice-cream",
    "category": "Coffee",
    "subcategory": "Dessert",
    "neighborhood": "River Market",
    "price_level": "$",
    "rating": 4.9,
    "reviews": 1234,
    "tags": ["dessert", "family-friendly", "popular"],
    "address": {"street":"600 N 2nd St","city":"Kansas City","state":"MO","zip":"64116"},
    "location": {"lng": -94.5768, "lat": 39.1149},
    "hours": {"mon":"11–10","tue":"11–10","wed":"11–10","thu":"11–10","fri":"11–11","sat":"11–11","sun":"11–10"},
    "images": ["https://images.pexels.com/photos/1352278/pexels-photo-1352278.jpeg"],
    "ai_summary": "House-made ice cream with creative flavors and nostalgic vibes.",
    "featured": false
  },
  {
    "id": "arvest-bank-theatre",
    "name": "Arvest Bank Theatre at The Midland",
    "slug": "arvest-bank-theatre",
    "category": "Arts",
    "subcategory": "Theater",
    "neighborhood": "Power & Light",
    "price_level": "$$$",
    "rating": 4.6,
    "reviews": 892,
    "tags": ["theater", "concerts", "historic"],
    "address": {"street":"1228 Main St","city":"Kansas City","state":"MO","zip":"64105"},
    "location": {"lng": -94.5812, "lat": 39.0991},
    "hours": {"mon":"Varies","tue":"Varies","wed":"Varies","thu":"Varies","fri":"Varies","sat":"Varies","sun":"Varies"},
    "images": ["https://images.pexels.com/photos/2102568/pexels-photo-2102568.jpeg"],
    "ai_summary": "Historic theater hosting concerts, comedy, and special events.",
    "featured": false
  },
  {
    "id": "black-dolphin",
    "name": "Black Dolphin",
    "slug": "black-dolphin",
    "category": "Nightlife",
    "subcategory": "Cocktail Bar",
    "neighborhood": "Westport",
    "price_level": "$$",
    "rating": 4.7,
    "reviews": 478,
    "tags": ["cocktails", "upscale", "date-night"],
    "address": {"street":"4050 Pennsylvania Ave","city":"Kansas City","state":"MO","zip":"64111"},
    "location": {"lng": -94.5891, "lat": 39.0555},
    "hours": {"mon":"Closed","tue":"4–12","wed":"4–12","thu":"4–12","fri":"4–1am","sat":"4–1am","sun":"4–11"},
    "images": ["https://images.pexels.com/photos/1280360/pexels-photo-1280360.jpeg"],
    "ai_summary": "Craft cocktail bar with creative drinks and intimate atmosphere.",
    "featured": false
  },
  {
    "id": "town-topic",
    "name": "Town Topic Hamburgers",
    "slug": "town-topic",
    "category": "American",
    "subcategory": "Diner",
    "neighborhood": "Downtown",
    "price_level": "$",
    "rating": 4.4,
    "reviews": 812,
    "tags": ["diner", "late-night", "historic"],
    "address": {"street":"2021 Broadway Blvd","city":"Kansas City","state":"MO","zip":"64108"},
    "location": {"lng": -94.5804, "lat": 39.0845},
    "hours": {"mon":"24hr","tue":"24hr","wed":"24hr","thu":"24hr","fri":"24hr","sat":"24hr","sun":"24hr"},
    "images": ["https://images.pexels.com/photos/1639562/pexels-photo-1639562.jpeg"],
    "ai_summary": "Classic KC diner serving burgers since 1937, open 24 hours.",
    "featured": false
  },
  {
    "id": "kc-zoo",
    "name": "Kansas City Zoo",
    "slug": "kansas-city-zoo",
    "category": "Outdoors",
    "subcategory": "Zoo",
    "neighborhood": "Swope Park",
    "price_level": "$$",
    "rating": 4.5,
    "reviews": 3218,
    "tags": ["zoo", "family-friendly", "outdoors"],
    "address": {"street":"6800 Zoo Dr","city":"Kansas City","state":"MO","zip":"64132"},
    "location": {"lng": -94.5273, "lat": 38.9981},
    "hours": {"mon":"9–5","tue":"9–5","wed":"9–5","thu":"9–5","fri":"9–5","sat":"9–5","sun":"9–5"},
    "images": ["https://images.pexels.com/photos/51340/leopard-wildcat-big-cat-botswana-51340.jpeg"],
    "ai_summary": "Major zoo with diverse animal exhibits and interactive experiences.",
    "featured": true
  },
  {
    "id": "novel-restaurant",
    "name": "Novel",
    "slug": "novel-restaurant",
    "category": "American",
    "subcategory": "Fine Dining",
    "neighborhood": "Country Club Plaza",
    "price_level": "$$$",
    "rating": 4.8,
    "reviews": 543,
    "tags": ["fine-dining", "seasonal", "date-night"],
    "address": {"street":"200 W 47th St","city":"Kansas City","state":"MO","zip":"64112"},
    "location": {"lng": -94.5889, "lat": 39.0422},
    "hours": {"mon":"Closed","tue":"5–9","wed":"5–9","thu":"5–9","fri":"5–10","sat":"5–10","sun":"5–9"},
    "images": ["https://images.pexels.com/photos/1126728/pexels-photo-1126728.jpeg"],
    "ai_summary": "Contemporary American cuisine with seasonal ingredients and creative presentations.",
    "featured": false
  },
  {
    "id": "jerusalem-cafe",
    "name": "Jerusalem Cafe",
    "slug": "jerusalem-cafe",
    "category": "American",
    "subcategory": "Mediterranean",
    "neighborhood": "Westport",
    "price_level": "$",
    "rating": 4.6,
    "reviews": 689,
    "tags": ["mediterranean", "vegetarian-friendly", "casual"],
    "address": {"street":"431 Westport Rd","city":"Kansas City","state":"MO","zip":"64111"},
    "location": {"lng": -94.5898, "lat": 39.0541},
    "hours": {"mon":"11–9","tue":"11–9","wed":"11–9","thu":"11–9","fri":"11–10","sat":"11–10","sun":"11–9"},
    "images": ["https://images.pexels.com/photos/1640777/pexels-photo-1640777.jpeg"],
    "ai_summary": "Authentic Middle Eastern cuisine with generous portions and friendly service.",
    "featured": false
  },
  {
    "id": "grinders",
    "name": "Grinders",
    "slug": "grinders",
    "category": "Nightlife",
    "subcategory": "Bar",
    "neighborhood": "Crossroads",
    "price_level": "$",
    "rating": 4.3,
    "reviews": 921,
    "tags": ["live-music", "dive-bar", "pizza"],
    "address": {"street":"417 E 18th St","city":"Kansas City","state":"MO","zip":"64108"},
    "location": {"lng": -94.5765, "lat": 39.0864},
    "hours": {"mon":"11–2am","tue":"11–2am","wed":"11–2am","thu":"11–2am","fri":"11–3am","sat":"11–3am","sun":"11–2am"},
    "images": ["https://images.pexels.com/photos/1267363/pexels-photo-1267363.jpeg"],
    "ai_summary": "Eclectic venue with live music, outdoor patio, and late-night eats.",
    "featured": false
  },
  {
    "id": "tea-drops",
    "name": "Tea Drops",
    "slug": "tea-drops",
    "category": "Coffee",
    "subcategory": "Tea House",
    "neighborhood": "Overland Park",
    "price_level": "$",
    "rating": 4.7,
    "reviews": 412,
    "tags": ["tea", "cafe", "wifi"],
    "address": {"street":"7437 W 119th St","city":"Overland Park","state":"KS","zip":"66213"},
    "location": {"lng": -94.6542, "lat": 38.9143},
    "hours": {"mon":"9–7","tue":"9–7","wed":"9–7","thu":"9–7","fri":"9–8","sat":"9–8","sun":"10–6"},
    "images": ["https://images.pexels.com/photos/1638280/pexels-photo-1638280.jpeg"],
    "ai_summary": "Cozy tea house with extensive selection and light bites.",
    "featured": false
  },
  {
    "id": "kansas-city-library",
    "name": "Kansas City Public Library",
    "slug": "kansas-city-library",
    "category": "Arts",
    "subcategory": "Library",
    "neighborhood": "Downtown",
    "price_level": "$",
    "rating": 4.8,
    "reviews": 1567,
    "tags": ["library", "free", "historic"],
    "address": {"street":"14 W 10th St","city":"Kansas City","state":"MO","zip":"64105"},
    "location": {"lng": -94.5815, "lat": 39.1024},
    "hours": {"mon":"9–8","tue":"9–8","wed":"9–8","thu":"9–8","fri":"9–6","sat":"9–5","sun":"1–5"},
    "images": ["https://images.pexels.com/photos/256541/pexels-photo-256541.jpeg"],
    "ai_summary": "Iconic library with the famous bookshelf parking garage facade.",
    "featured": true
  },
  {
    "id": "char-bar",
    "name": "char bar",
    "slug": "char-bar",
    "category": "BBQ",
    "subcategory": "Casual",
    "neighborhood": "Westport",
    "price_level": "$$",
    "rating": 4.5,
    "reviews": 734,
    "tags": ["bbq", "patio", "casual"],
    "address": {"street":"4050 Pennsylvania Ave","city":"Kansas City","state":"MO","zip":"64111"},
    "location": {"lng": -94.5893, "lat": 39.0556},
    "hours": {"mon":"11–10","tue":"11–10","wed":"11–10","thu":"11–10","fri":"11–11","sat":"11–11","sun":"11–9"},
    "images": ["https://images.pexels.com/photos/1251198/pexels-photo-1251198.jpeg"],
    "ai_summary": "Smoked meats with creative sides in a laid-back setting.",
    "featured": false
  },
  {
    "id": "stock-hill",
    "name": "Stock Hill",
    "slug": "stock-hill",
    "category": "American",
    "subcategory": "Farm-to-Table",
    "neighborhood": "Strawberry Hill",
    "price_level": "$$",
    "rating": 4.7,
    "reviews": 456,
    "tags": ["farm-to-table", "brunch", "seasonal"],
    "address": {"street":"948 Ohio Ave","city":"Kansas City","state":"KS","zip":"66101"},
    "location": {"lng": -94.6231, "lat": 39.1142},
    "hours": {"mon":"Closed","tue":"5–9","wed":"5–9","thu":"5–9","fri":"5–10","sat":"10–2, 5–10","sun":"10–2"},
    "images": ["https://images.pexels.com/photos/1211887/pexels-photo-1211887.jpeg"],
    "ai_summary": "Farm-to-table dining with creative seasonal menus and excellent brunch.",
    "featured": true
  },
  {
    "id": "korma-sutra",
    "name": "Korma Sutra",
    "slug": "korma-sutra",
    "category": "American",
    "subcategory": "Indian",
    "neighborhood": "Westport",
    "price_level": "$$",
    "rating": 4.6,
    "reviews": 623,
    "tags": ["indian", "vegetarian-friendly", "takeout"],
    "address": {"street":"4141 Pennsylvania Ave","city":"Kansas City","state":"MO","zip":"64111"},
    "location": {"lng": -94.5897, "lat": 39.0551},
    "hours": {"mon":"11–2:30, 5–9","tue":"11–2:30, 5–9","wed":"11–2:30, 5–9","thu":"11–2:30, 5–9","fri":"11–2:30, 5–10","sat":"11–10","sun":"11–9"},
    "images": ["https://images.pexels.com/photos/1624487/pexels-photo-1624487.jpeg"],
    "ai_summary": "Flavorful Indian cuisine with extensive vegetarian options.",
    "featured": false
  },
  {
    "id": "messenger-coffee",
    "name": "Messenger Coffee Co.",
    "slug": "messenger-coffee",
    "category": "Coffee",
    "subcategory": "Cafe",
    "neighborhood": "Crossroads",
    "price_level": "$",
    "rating": 4.8,
    "reviews": 892,
    "tags": ["coffee", "wifi", "popular"],
    "address": {"street":"1624 Grand Blvd","city":"Kansas City","state":"MO","zip":"64108"},
    "location": {"lng": -94.5789, "lat": 39.0878},
    "hours": {"mon":"7–6","tue":"7–6","wed":"7–6","thu":"7–6","fri":"7–6","sat":"8–6","sun":"8–5"},
    "images": ["https://images.pexels.com/photos/1251175/pexels-photo-1251175.jpeg"],
    "ai_summary": "Local roaster with exceptional coffee and industrial-chic space.",
    "featured": true
  },
  {
    "id": "slaps-bbq",
    "name": "Slap's BBQ",
    "slug": "slaps-bbq",
    "category": "BBQ",
    "subcategory": "Casual",
    "neighborhood": "KCK",
    "price_level": "$$",
    "rating": 4.9,
    "reviews": 1876,
    "tags": ["bbq", "popular", "takeout"],
    "address": {"street":"553 Central Ave","city":"Kansas City","state":"KS","zip":"66101"},
    "location": {"lng": -94.6273, "lat": 39.1156},
    "hours": {"mon":"Closed","tue":"11–7","wed":"11–7","thu":"11–7","fri":"11–8","sat":"11–8","sun":"Closed"},
    "images": ["https://images.pexels.com/photos/5410400/pexels-photo-5410400.jpeg"],
    "ai_summary": "Competition-winning BBQ with melt-in-your-mouth brisket and ribs.",
    "featured": true
  },
  {
    "id": "crossroads-hotel",
    "name": "The Crossroads Hotel",
    "slug": "crossroads-hotel",
    "category": "Nightlife",
    "subcategory": "Hotel Bar",
    "neighborhood": "Crossroads",
    "price_level": "$$$",
    "rating": 4.7,
    "reviews": 534,
    "tags": ["rooftop", "cocktails", "upscale"],
    "address": {"street":"2101 Central St","city":"Kansas City","state":"MO","zip":"64108"},
    "location": {"lng": -94.5792, "lat": 39.0838},
    "hours": {"mon":"4–12","tue":"4–12","wed":"4–12","thu":"4–1am","fri":"4–2am","sat":"10–2am","sun":"10–12"},
    "images": ["https://images.pexels.com/photos/1001965/pexels-photo-1001965.jpeg"],
    "ai_summary": "Stylish hotel with rooftop bar, cocktails, and city views.",
    "featured": false
  }
]
